[{"id":20046,"name": "Им.Э.Т.Кренкеля,ГМО                ","latitude":80.60,   "longitude":58.00,"height":      21},
{"id":20069,"name": "Остров_Визе                        ","latitude":79.50,   "longitude":76.98,"height":      12},
{"id":20087,"name": "Голомянный                         ","latitude":79.55,   "longitude":90.62,"height":       7},
{"id":20107,"name": "Баренцбург                         ","latitude":78.07,   "longitude":14.25,"height":      73},
{"id":20289,"name": "Русский                            ","latitude":77.20,   "longitude":96.40,"height":       9},
{"id":20292,"name": "Им.Е.К.Федорова,ГМО                ","latitude":77.72,  "longitude":104.30,"height":      14},
{"id":20353,"name": "мыс_Желания                        ","latitude":76.95,   "longitude":68.55,"height":       8},
{"id":20476,"name": "Стерлегова                         ","latitude":75.42,   "longitude":88.90,"height":      10},
{"id":20667,"name": "Им.М.В.Попова                      ","latitude":73.33,   "longitude":70.05,"height":       4},
{"id":20674,"name": "Остров_Диксон                      ","latitude":73.50,   "longitude":80.40,"height":      42},
{"id":20744,"name": "Малые_Кармакулы                    ","latitude":72.37,   "longitude":52.70,"height":      18},
{"id":20891,"name": "Хатанга                            ","latitude":71.98,  "longitude":102.47,"height":      31},
{"id":20946,"name": "Им.Е.К.Федорова(Болванский_нос)    ","latitude":70.45,   "longitude":59.08,"height":      13},
{"id":20982,"name": "Волочанка                          ","latitude":70.97,   "longitude":94.50,"height":      37},
{"id":21358,"name": "Остров_Жохова                      ","latitude":76.20,  "longitude":152.80,"height":      14},
{"id":21432,"name": "Остров_Котельный                   ","latitude":76.00,  "longitude":137.87,"height":      12},
{"id":21611,"name": "Терпяй-Тумса                       ","latitude":73.55,  "longitude":118.67,"height":      12},
{"id":21647,"name": "мыс_Шалаурова                      ","latitude":73.18,  "longitude":143.23,"height":      21},
{"id":21802,"name": "Саскылах                           ","latitude":71.97,  "longitude":114.08,"height":      16},
{"id":21824,"name": "Тикси                              ","latitude":71.58,  "longitude":128.92,"height":       6},
{"id":21908,"name": "Джалинда                           ","latitude":70.13,  "longitude":113.97,"height":      61},
{"id":21921,"name": "Кюсюр                              ","latitude":70.68,  "longitude":127.40,"height":      30},
{"id":21931,"name": "Юбилейная                          ","latitude":70.77,  "longitude":136.22,"height":      23},
{"id":21946,"name": "Чокурдах                           ","latitude":70.62,  "longitude":147.88,"height":      44},
{"id":21982,"name": "Остров_Врангеля                    ","latitude":70.98,  "longitude":-178.48,"height":      18},
{"id":22003,"name": "Вайда-Губа                         ","latitude":69.93,   "longitude":31.98,"height":       8},
{"id":22019,"name": "Полярное                           ","latitude":69.20,   "longitude":33.48,"height":      32},
{"id":22028,"name": "Териберка                          ","latitude":69.20,   "longitude":35.12,"height":      33},
{"id":22095,"name": "Колгуев_Северный                   ","latitude":69.53,   "longitude":49.08,"height":      23},
{"id":22101,"name": "Янискоски                          ","latitude":69.00,   "longitude":28.80,"height":      99},
{"id":22106,"name": "Падун                              ","latitude":68.60,   "longitude":31.80,"height":      61},
{"id":22113,"name": "Мурманск                           ","latitude":68.97,   "longitude":33.05,"height":      57},
{"id":22119,"name": "Пулозеро                           ","latitude":68.35,   "longitude":33.30,"height":     143},
{"id":22127,"name": "Ловозеро                           ","latitude":68.00,   "longitude":35.03,"height":     159},
{"id":22140,"name": "Святой_Нос                         ","latitude":68.15,   "longitude":39.80,"height":      12},
{"id":22165,"name": "Канин_Нос                          ","latitude":68.65,   "longitude":43.30,"height":      48},
{"id":22204,"name": "Ковдор                             ","latitude":67.57,   "longitude":30.45,"height":     246},
{"id":22212,"name": "Мончегорск                         ","latitude":67.97,   "longitude":32.90,"height":     140},
{"id":22217,"name": "Кандалакша                         ","latitude":67.15,   "longitude":32.35,"height":      26},
{"id":22235,"name": "Краснощелье                        ","latitude":67.35,   "longitude":37.05,"height":     155},
{"id":22249,"name": "Каневка                            ","latitude":67.13,   "longitude":39.67,"height":     149},
{"id":22269,"name": "мыс_Конушин                        ","latitude":67.15,   "longitude":43.90,"height":      11},
{"id":22271,"name": "Шойна                              ","latitude":67.88,   "longitude":44.13,"height":       5},
{"id":22282,"name": "мыс_Микулкин                       ","latitude":67.80,   "longitude":46.67,"height":       6},
{"id":22292,"name": "Индига                             ","latitude":67.68,   "longitude":48.68,"height":       3},
{"id":22312,"name": "Ковда                              ","latitude":66.70,   "longitude":32.90,"height":      30},
{"id":22318,"name": "Лоухи                              ","latitude":66.10,   "longitude":32.90,"height":      95},
{"id":22324,"name": "Умба                               ","latitude":66.68,   "longitude":34.35,"height":      39},
{"id":22349,"name": "Пялица                             ","latitude":66.18,   "longitude":39.53,"height":       8},
{"id":22355,"name": "Сосновец                           ","latitude":66.48,   "longitude":40.68,"height":      15},
{"id":22365,"name": "Абрамовский_маяк                   ","latitude":66.38,   "longitude":43.25,"height":      20},
{"id":22383,"name": "Нижняя_Пеша                        ","latitude":66.75,   "longitude":47.77,"height":      12},
{"id":22408,"name": "Калевала                           ","latitude":65.22,   "longitude":31.17,"height":     118},
{"id":22422,"name": "Гридино                            ","latitude":65.90,   "longitude":34.77,"height":       9},
{"id":22438,"name": "Жижгин                             ","latitude":65.20,   "longitude":36.82,"height":      26},
{"id":22446,"name": "Зимнегорский_маяк                  ","latitude":65.47,   "longitude":39.67,"height":      83},
{"id":22452,"name": "Инцы                               ","latitude":65.97,   "longitude":40.72,"height":       2},
{"id":22471,"name": "Мезень                             ","latitude":65.87,   "longitude":44.22,"height":      14},
{"id":22499,"name": "Борковская                         ","latitude":65.23,   "longitude":49.56,"height":     154},
{"id":22511,"name": "Юшкозеро                           ","latitude":64.75,   "longitude":32.10,"height":      95},
{"id":22518,"name": "Ругозеро                           ","latitude":64.10,   "longitude":32.80,"height":     160},
{"id":22520,"name": "Кемь-порт                          ","latitude":64.98,   "longitude":34.80,"height":       7},
{"id":22525,"name": "Разнаволок                         ","latitude":64.57,   "longitude":34.92,"height":      10},
{"id":22529,"name": "Колежма                            ","latitude":64.20,   "longitude":35.90,"height":       4},
{"id":22541,"name": "Уинский_маяк                       ","latitude":64.83,   "longitude":38.40,"height":       2},
{"id":22550,"name": "Архангельск                        ","latitude":64.50,   "longitude":40.73,"height":       8},
{"id":22551,"name": "Мудьюг                             ","latitude":64.85,   "longitude":40.28,"height":       1},
{"id":22559,"name": "Холмогоры                          ","latitude":64.22,   "longitude":41.67,"height":      10},
{"id":22563,"name": "Пинега                             ","latitude":64.70,   "longitude":43.38,"height":      28},
{"id":22573,"name": "Лешуконское                        ","latitude":64.90,   "longitude":45.77,"height":      64},
{"id":22583,"name": "Койнас                             ","latitude":64.75,   "longitude":47.65,"height":      63},
{"id":22602,"name": "Реболы                             ","latitude":63.83,   "longitude":30.82,"height":     180},
{"id":22619,"name": "Паданы                             ","latitude":63.27,   "longitude":33.42,"height":     130},
{"id":22621,"name": "Сегежа                             ","latitude":63.77,   "longitude":34.28,"height":     111},
{"id":22641,"name": "Онега                              ","latitude":63.90,   "longitude":38.12,"height":      11},
{"id":22648,"name": "Турчасово                          ","latitude":63.12,   "longitude":39.23,"height":      36},
{"id":22656,"name": "Емецк                              ","latitude":63.48,   "longitude":41.80,"height":      16},
{"id":22676,"name": "Сура                               ","latitude":63.58,   "longitude":45.63,"height":      62},
{"id":22686,"name": "Вендинга                           ","latitude":63.45,   "longitude":47.92,"height":      78},
{"id":22695,"name": "Кослан                             ","latitude":63.45,   "longitude":48.90,"height":     132},
{"id":22721,"name": "Медвежьегорск                      ","latitude":62.90,   "longitude":34.40,"height":      79},
{"id":22723,"name": "Данилово                           ","latitude":62.97,   "longitude":35.70,"height":     138},
{"id":22727,"name": "Кондопога                          ","latitude":62.20,   "longitude":34.30,"height":      41},
{"id":22738,"name": "Куганаволок                        ","latitude":62.20,   "longitude":36.90,"height":     151},
{"id":22762,"name": "Двинской_березник                  ","latitude":62.87,   "longitude":42.72,"height":      30},
{"id":22768,"name": "Шенкурск                           ","latitude":62.10,   "longitude":42.90,"height":      40},
{"id":22778,"name": "Верхняя_Тойма                      ","latitude":62.23,   "longitude":45.03,"height":      54},
{"id":22798,"name": "Яренск                             ","latitude":62.17,   "longitude":49.12,"height":      89},
{"id":22802,"name": "Сортавала                          ","latitude":61.72,   "longitude":30.72,"height":      17},
{"id":22816,"name": "Пряжа                              ","latitude":61.68,   "longitude":33.62,"height":     130},
{"id":22820,"name": "Петрозаводск                       ","latitude":61.82,   "longitude":34.27,"height":     110},
{"id":22831,"name": "Пудож                              ","latitude":61.80,   "longitude":36.60,"height":      44},
{"id":22833,"name": "Колодозеро                         ","latitude":61.80,   "longitude":37.75,"height":     116},
{"id":22837,"name": "Вытегра                            ","latitude":61.02,   "longitude":36.45,"height":      55},
{"id":22845,"name": "Каргополь                          ","latitude":61.52,   "longitude":38.93,"height":     124},
{"id":22854,"name": "Няндома                            ","latitude":61.67,   "longitude":40.18,"height":     232},
{"id":22867,"name": "Вельск                             ","latitude":61.08,   "longitude":42.07,"height":      89},
{"id":22887,"name": "Котлас                             ","latitude":61.27,   "longitude":46.72,"height":      55},
{"id":22892,"name": "Выборг                             ","latitude":60.70,   "longitude":28.71,"height":      10},
{"id":22907,"name": "Гогланд                            ","latitude":60.10,   "longitude":27.00,"height":       6},
{"id":22912,"name": "Олонец                             ","latitude":60.98,   "longitude":32.98,"height":      11},
{"id":22917,"name": "Новая_Ладога                       ","latitude":60.10,   "longitude":32.30,"height":      12},
{"id":22925,"name": "Винницы                            ","latitude":60.60,   "longitude":34.80,"height":     109},
{"id":22939,"name": "Белозерск                          ","latitude":60.03,   "longitude":37.78,"height":     130},
{"id":22954,"name": "Вожега                             ","latitude":60.47,   "longitude":40.20,"height":     200},
{"id":22981,"name": "Великий_Устюг                      ","latitude":60.77,   "longitude":46.30,"height":      94},
{"id":22996,"name": "Объячево                           ","latitude":60.37,   "longitude":49.65,"height":     149},
{"id":23022,"name": "Амдерма                            ","latitude":69.75,   "longitude":61.70,"height":      53},
{"id":23032,"name": "Марресаля                          ","latitude":69.72,   "longitude":66.80,"height":      24},
{"id":23058,"name": "Антипаюта                          ","latitude":69.08,   "longitude":76.90,"height":       2},
{"id":23074,"name": "Дудинка                            ","latitude":69.40,   "longitude":86.17,"height":      14},
{"id":23078,"name": "Норильск                           ","latitude":69.33,   "longitude":88.30,"height":      60},
{"id":23114,"name": "Мыс_Константиновский               ","latitude":68.55,   "longitude":55.50,"height":       5},
{"id":23146,"name": "Мыс_Каменный                       ","latitude":68.47,   "longitude":73.58,"height":       2},
{"id":23205,"name": "Нарьян-Мар                         ","latitude":67.63,   "longitude":53.03,"height":       5},
{"id":23207,"name": "Коткино                            ","latitude":67.02,   "longitude":51.20,"height":      17},
{"id":23219,"name": "Хоседа-Хард                        ","latitude":67.08,   "longitude":59.38,"height":      82},
{"id":23220,"name": "Елецкая                            ","latitude":67.05,   "longitude":64.07,"height":     113},
{"id":23226,"name": "Воркута                            ","latitude":67.48,   "longitude":64.02,"height":     165},
{"id":23242,"name": "Новый_Порт                         ","latitude":67.68,   "longitude":72.88,"height":      11},
{"id":23256,"name": "Тазовское                          ","latitude":67.47,   "longitude":78.73,"height":      26},
{"id":23274,"name": "Игарка                             ","latitude":67.47,   "longitude":86.57,"height":      20},
{"id":23305,"name": "Окунев_нос                         ","latitude":66.25,   "longitude":52.58,"height":      22},
{"id":23324,"name": "Петрунь                            ","latitude":66.43,   "longitude":60.77,"height":      61},
{"id":23330,"name": "Салехард                           ","latitude":66.50,   "longitude":66.68,"height":      15},
{"id":23331,"name": "Ра-Из                              ","latitude":66.90,   "longitude":65.67,"height":     895},
{"id":23345,"name": "Ныда                               ","latitude":66.60,   "longitude":72.90,"height":       5},
{"id":23365,"name": "Сидоровск                          ","latitude":66.60,   "longitude":82.30,"height":      34},
{"id":23383,"name": "Агата                              ","latitude":66.88,   "longitude":93.47,"height":     277},
{"id":23405,"name": "Усть-Цильма                        ","latitude":65.43,   "longitude":52.27,"height":      78},
{"id":23412,"name": "Усть-Уса                           ","latitude":65.97,   "longitude":56.92,"height":      77},
{"id":23418,"name": "Печора                             ","latitude":65.12,   "longitude":57.10,"height":      53},
{"id":23426,"name": "Мужи                               ","latitude":65.40,   "longitude":64.70,"height":      18},
{"id":23445,"name": "Надым                              ","latitude":65.47,   "longitude":72.67,"height":      14},
{"id":23463,"name": "Янов_Стан                          ","latitude":65.98,   "longitude":84.27,"height":      41},
{"id":23472,"name": "Туруханск                          ","latitude":65.78,   "longitude":87.93,"height":      38},
{"id":23514,"name": "Ираель                             ","latitude":64.52,   "longitude":55.40,"height":     156},
{"id":23518,"name": "Усть-Щугор                         ","latitude":64.27,   "longitude":57.62,"height":      73},
{"id":23527,"name": "Саранпауль                         ","latitude":64.28,   "longitude":60.88,"height":      28},
{"id":23552,"name": "Тарко-Сале                         ","latitude":64.92,   "longitude":77.82,"height":      26},
{"id":23589,"name": "Тутончаны                          ","latitude":64.20,   "longitude":93.78,"height":     105},
{"id":23606,"name": "Ухта                               ","latitude":63.55,   "longitude":53.82,"height":     133},
{"id":23625,"name": "Сосьва                             ","latitude":63.65,   "longitude":62.10,"height":      26},
{"id":23631,"name": "Березово,АМСГ                      ","latitude":63.93,   "longitude":65.05,"height":      27},
{"id":23656,"name": "Халесовая                          ","latitude":63.38,   "longitude":78.32,"height":      66},
{"id":23662,"name": "Толька                             ","latitude":63.98,   "longitude":82.08,"height":      31},
{"id":23678,"name": "Верхнеимбатск                      ","latitude":63.15,   "longitude":87.95,"height":      46},
{"id":23701,"name": "Весляна                            ","latitude":62.98,   "longitude":50.90,"height":     102},
{"id":23707,"name": "Усть-Вымь                          ","latitude":62.23,   "longitude":50.42,"height":     106},
{"id":23711,"name": "Троицко-Печорское                  ","latitude":62.70,   "longitude":56.20,"height":     134},
{"id":23724,"name": "Няксимволь                         ","latitude":62.43,   "longitude":60.87,"height":      50},
{"id":23734,"name": "Октябрьское                        ","latitude":62.45,   "longitude":66.05,"height":      70},
{"id":23803,"name": "Усть-Кулом                         ","latitude":61.68,   "longitude":53.68,"height":     140},
{"id":23804,"name": "Сыктывкар                          ","latitude":61.68,   "longitude":50.78,"height":     117},
{"id":23813,"name": "Усть-Унья                          ","latitude":61.80,   "longitude":57.92,"height":     171},
{"id":23849,"name": "Сургут,АМСГ                        ","latitude":61.25,   "longitude":73.50,"height":      59},
{"id":23867,"name": "Ларьяк                             ","latitude":61.10,   "longitude":80.25,"height":      55},
{"id":23884,"name": "Бор                                ","latitude":61.60,   "longitude":90.02,"height":      62},
{"id":23891,"name": "Байкит                             ","latitude":61.67,   "longitude":96.37,"height":     256},
{"id":23904,"name": "Койгородок                         ","latitude":60.45,   "longitude":50.97,"height":     124},
{"id":23909,"name": "Гайны                              ","latitude":60.28,   "longitude":54.35,"height":     196},
{"id":23914,"name": "Чердынь                            ","latitude":60.40,   "longitude":56.52,"height":     208},
{"id":23921,"name": "Ивдель                             ","latitude":60.68,   "longitude":60.45,"height":      93},
{"id":23929,"name": "Шаим                               ","latitude":60.30,   "longitude":64.20,"height":      51},
{"id":23933,"name": "Ханты-Мансийск                     ","latitude":61.02,   "longitude":69.03,"height":      44},
{"id":23946,"name": "Угут                               ","latitude":60.50,   "longitude":74.02,"height":      47},
{"id":23955,"name": "Александровское                    ","latitude":60.43,   "longitude":77.87,"height":      47},
{"id":23966,"name": "Ванжиль-Кынак                      ","latitude":60.35,   "longitude":84.08,"height":      98},
{"id":23973,"name": "Ворогово                           ","latitude":61.03,   "longitude":89.63,"height":      46},
{"id":23975,"name": "Сым                                ","latitude":60.40,   "longitude":88.40,"height":      85},
{"id":23982,"name": "Вельмо                             ","latitude":61.00,   "longitude":93.40,"height":     121},
{"id":23986,"name": "Северо-Енисейский                  ","latitude":60.38,   "longitude":93.03,"height":     513},
{"id":23987,"name": "Ярцево                             ","latitude":60.28,   "longitude":90.17,"height":      57},
{"id":24076,"name": "Депутатский                        ","latitude":69.33,  "longitude":139.67,"height":     282},
{"id":24105,"name": "Ессей                              ","latitude":68.47,  "longitude":102.37,"height":     272},
{"id":24125,"name": "Оленек                             ","latitude":68.50,  "longitude":112.43,"height":     217},
{"id":24136,"name": "Сухана                             ","latitude":68.62,  "longitude":118.33,"height":      78},
{"id":24143,"name": "Джарджан                           ","latitude":68.73,  "longitude":124.00,"height":      38},
{"id":24266,"name": "Верхоянск                          ","latitude":67.57,  "longitude":133.40,"height":     136},
{"id":24329,"name": "Шелагонцы                          ","latitude":66.25,  "longitude":114.28,"height":     233},
{"id":24343,"name": "Жиганск                            ","latitude":66.77,  "longitude":123.40,"height":      88},
{"id":24371,"name": "Усть-Чаркы                         ","latitude":66.80,  "longitude":136.68,"height":     274},
{"id":24382,"name": "Усть-Мома                          ","latitude":66.45,  "longitude":143.23,"height":     195},
{"id":24507,"name": "Тура                               ","latitude":64.27,  "longitude":100.23,"height":     188},
{"id":24538,"name": "Чумпурук                           ","latitude":64.23,  "longitude":116.92,"height":     137},
{"id":24585,"name": "Нера,АМСГ                          ","latitude":64.55,  "longitude":143.12,"height":     512},
{"id":24598,"name": "Дарпир                             ","latitude":64.10,  "longitude":148.00,"height":     837},
{"id":24606,"name": "Кислокан                           ","latitude":63.58,  "longitude":103.97,"height":     209},
{"id":24639,"name": "Нюрба                              ","latitude":63.28,  "longitude":118.33,"height":     117},
{"id":24641,"name": "Вилюйск                            ","latitude":63.78,  "longitude":121.62,"height":     111},
{"id":24643,"name": "Хатырык-Хомо                       ","latitude":63.95,  "longitude":124.83,"height":      76},
{"id":24652,"name": "Сангары                            ","latitude":63.97,  "longitude":127.47,"height":      93},
{"id":24656,"name": "Батамай                            ","latitude":63.52,  "longitude":129.48,"height":      80},
{"id":24661,"name": "Сеген-Кюель                        ","latitude":64.00,  "longitude":130.30,"height":     208},
{"id":24671,"name": "Томпо                              ","latitude":63.95,  "longitude":135.87,"height":     399},
{"id":24679,"name": "Восточная                          ","latitude":63.22,  "longitude":139.60,"height":    1286},
{"id":24688,"name": "Оймякон                            ","latitude":63.25,  "longitude":143.15,"height":     740},
{"id":24713,"name": "Наканно                            ","latitude":62.88,  "longitude":108.43,"height":     246},
{"id":24724,"name": "Чернышевский                       ","latitude":63.03,  "longitude":112.50,"height":     418},
{"id":24726,"name": "Мирный                             ","latitude":62.50,  "longitude":113.90,"height":     351},
{"id":24738,"name": "Сунтар                             ","latitude":62.15,  "longitude":117.65,"height":     131},
{"id":24763,"name": "Крест-Хальджай                     ","latitude":62.80,  "longitude":134.40,"height":     119},
{"id":24768,"name": "Чурапча                            ","latitude":62.03,  "longitude":132.60,"height":     181},
{"id":24790,"name": "Сусуман                            ","latitude":62.78,  "longitude":148.17,"height":     646},
{"id":24802,"name": "Стрелка_Чуня                       ","latitude":61.70,  "longitude":102.70,"height":     357},
{"id":24817,"name": "Ербогачен                          ","latitude":61.27,  "longitude":108.02,"height":     284},
{"id":24856,"name": "Покровская                         ","latitude":61.50,  "longitude":129.15,"height":     115},
{"id":24891,"name": "Кулу                               ","latitude":61.88,  "longitude":147.43,"height":     666},
{"id":24908,"name": "Ванавара                           ","latitude":60.33,  "longitude":102.27,"height":     259},
{"id":24918,"name": "Преображенка                       ","latitude":60.05,  "longitude":108.08,"height":     293},
{"id":24923,"name": "Ленск                              ","latitude":60.72,  "longitude":114.88,"height":     241},
{"id":24933,"name": "Килеер                             ","latitude":60.95,  "longitude":119.30,"height":     247},
{"id":24944,"name": "Олекминск                          ","latitude":60.40,  "longitude":120.42,"height":     225},
{"id":24951,"name": "Исить                              ","latitude":60.82,  "longitude":125.32,"height":     123},
{"id":24959,"name": "Якутск,ОГМС                        ","latitude":62.02,  "longitude":129.72,"height":      98},
{"id":24962,"name": "Амга                               ","latitude":60.90,  "longitude":131.98,"height":     145},
{"id":24966,"name": "Усть-Мая                           ","latitude":60.38,  "longitude":134.45,"height":     169},
{"id":24967,"name": "Тегюльтя                           ","latitude":60.47,  "longitude":130.00,"height":     173},
{"id":24982,"name": "Уега                               ","latitude":60.72,  "longitude":142.78,"height":     396},
{"id":24988,"name": "Арка                               ","latitude":60.08,  "longitude":142.33,"height":     196},
{"id":25034,"name": "Амбарчик_бухта                     ","latitude":69.62,  "longitude":162.30,"height":      24},
{"id":25042,"name": "Остров_Айон                        ","latitude":69.93,  "longitude":167.98,"height":      13},
{"id":25062,"name": "Мыс_Биллингса                      ","latitude":69.88,  "longitude":175.77,"height":       2},
{"id":25123,"name": "Черский                            ","latitude":68.75,  "longitude":161.28,"height":      32},
{"id":25138,"name": "Островное                          ","latitude":68.12,  "longitude":164.17,"height":      98},
{"id":25173,"name": "Мыс_Шмидта                         ","latitude":68.90,  "longitude":-179.50,"height":       2},
{"id":25206,"name": "Среднеколымск                      ","latitude":67.45,  "longitude":153.72,"height":      20},
{"id":25248,"name": "Илирней                            ","latitude":67.25,  "longitude":168.97,"height":     352},
{"id":25282,"name": "Мыс_Ванкарем                       ","latitude":67.83,  "longitude":-175.80,"height":       3},
{"id":25325,"name": "Усть-Олой                          ","latitude":66.55,  "longitude":159.42,"height":     127},
{"id":25356,"name": "Эньмувеем                          ","latitude":66.38,  "longitude":173.33,"height":      78},
{"id":25372,"name": "Амгуэма,87км                       ","latitude":67.00,  "longitude":178.90,"height":     139},
{"id":25378,"name": "Эгвекинот                          ","latitude":66.35,  "longitude":-179.10,"height":      18},
{"id":25399,"name": "Уэлен                              ","latitude":66.17,  "longitude":-169.83,"height":       5},
{"id":25400,"name": "Зырянка                            ","latitude":65.73,  "longitude":150.90,"height":      41},
{"id":25428,"name": "Омолон                             ","latitude":65.23,  "longitude":160.53,"height":     260},
{"id":25503,"name": "Коркодон                           ","latitude":64.75,  "longitude":153.97,"height":      97},
{"id":25526,"name": "Кегали                             ","latitude":64.25,  "longitude":161.07,"height":     373},
{"id":25538,"name": "Верхне-Пенжино                     ","latitude":64.22,  "longitude":164.23,"height":     324},
{"id":25551,"name": "Марково                            ","latitude":64.68,  "longitude":170.42,"height":      25},
{"id":25563,"name": "Анадырь                            ","latitude":64.78,  "longitude":177.57,"height":      64},
{"id":25594,"name": "Бухта_Провидения                   ","latitude":64.42,  "longitude":-173.25,"height":      25},
{"id":25621,"name": "Кедон                              ","latitude":64.00,  "longitude":158.92,"height":     682},
{"id":25656,"name": "Березово                           ","latitude":63.40,  "longitude":172.70,"height":     200},
{"id":25677,"name": "Беринговская                       ","latitude":63.05,  "longitude":179.32,"height":       3},
{"id":25703,"name": "Сеймчан                            ","latitude":62.92,  "longitude":152.42,"height":     210},
{"id":25705,"name": "Среднекан                          ","latitude":62.45,  "longitude":152.32,"height":     264},
{"id":25715,"name": "Омсукчан                           ","latitude":62.52,  "longitude":155.80,"height":     499},
{"id":25744,"name": "Каменское                          ","latitude":62.48,  "longitude":166.08,"height":      10},
{"id":25767,"name": "Хатырка                            ","latitude":62.05,  "longitude":175.20,"height":      11},
{"id":25777,"name": "Гавриила_бухта                     ","latitude":62.40,  "longitude":179.10,"height":       4},
{"id":25821,"name": "Наяхан                             ","latitude":61.90,  "longitude":158.90,"height":      23},
{"id":25902,"name": "Атка                               ","latitude":60.85,  "longitude":151.77,"height":     904},
{"id":25912,"name": "Ола                                ","latitude":59.57,  "longitude":151.28,"height":       4},
{"id":25913,"name": "Магадан                            ","latitude":59.55,  "longitude":150.78,"height":     115},
{"id":25916,"name": "Мыс_Алевина                        ","latitude":58.83,  "longitude":151.35,"height":      64},
{"id":25922,"name": "Шелихово                           ","latitude":60.72,  "longitude":155.88,"height":      34},
{"id":25927,"name": "Брохово                            ","latitude":59.65,  "longitude":154.27,"height":       7},
{"id":25932,"name": "Тайгонос                           ","latitude":60.68,  "longitude":160.40,"height":      45},
{"id":25954,"name": "Корф                               ","latitude":60.35,  "longitude":166.00,"height":       1},
{"id":25956,"name": "Апука                              ","latitude":60.43,  "longitude":169.67,"height":       3},
{"id":26038,"name": "Таллинн(Эстония)                   ","latitude":59.38,   "longitude":24.58,"height":      34},
{"id":26059,"name": "Кингисепп                          ","latitude":59.37,   "longitude":28.60,"height":      18},
{"id":26063,"name": "Санкт-Петербург                    ","latitude":59.97,   "longitude":30.30,"height":       3},
{"id":26069,"name": "Белогорка                          ","latitude":59.35,   "longitude":30.13,"height":      88},
{"id":26072,"name": "Шлиссельбург                       ","latitude":59.90,   "longitude":31.00,"height":      14},
{"id":26078,"name": "Любань                             ","latitude":59.35,   "longitude":31.23,"height":      38},
{"id":26081,"name": "Волхов                             ","latitude":59.90,   "longitude":32.30,"height":      32},
{"id":26092,"name": "Шугозеро                           ","latitude":59.95,   "longitude":34.20,"height":      89},
{"id":26094,"name": "Тихвин                             ","latitude":59.65,   "longitude":33.55,"height":      61},
{"id":26099,"name": "Ефимовская                         ","latitude":59.50,   "longitude":34.70,"height":     173},
{"id":26157,"name": "Гдов                               ","latitude":58.73,   "longitude":27.83,"height":      39},
{"id":26167,"name": "Николаевское                       ","latitude":58.57,   "longitude":29.80,"height":      91},
{"id":26179,"name": "Новгород                           ","latitude":58.52,   "longitude":31.25,"height":      25},
{"id":26188,"name": "Веребье                            ","latitude":58.70,   "longitude":32.70,"height":     116},
{"id":26196,"name": "Хвойная                            ","latitude":58.90,   "longitude":34.50,"height":     162},
{"id":26231,"name": "Пярну(Эстония)                     ","latitude":58.37,   "longitude":24.50,"height":       8},
{"id":26258,"name": "Псков                              ","latitude":57.80,   "longitude":28.30,"height":      43},
{"id":26264,"name": "Струги_Красные                     ","latitude":58.27,   "longitude":29.10,"height":     127},
{"id":26268,"name": "Дно                                ","latitude":57.80,   "longitude":29.95,"height":      63},
{"id":26275,"name": "Старая_Русса                       ","latitude":58.02,   "longitude":31.32,"height":      24},
{"id":26283,"name": "Окуловка                           ","latitude":58.37,   "longitude":33.32,"height":     173},
{"id":26285,"name": "Крестцы                            ","latitude":58.27,   "longitude":32.53,"height":      62},
{"id":26291,"name": "Боровичи                           ","latitude":58.40,   "longitude":33.90,"height":      87},
{"id":26298,"name": "Бологое                            ","latitude":57.90,   "longitude":34.05,"height":     186},
{"id":26359,"name": "Пушкинские_Горы                    ","latitude":57.02,   "longitude":28.90,"height":     108},
{"id":26378,"name": "Холм                               ","latitude":57.15,   "longitude":31.18,"height":      70},
{"id":26381,"name": "Демянск                            ","latitude":57.65,   "longitude":32.47,"height":      59},
{"id":26389,"name": "Осташков                           ","latitude":57.13,   "longitude":33.12,"height":     213},
{"id":26393,"name": "Вышний_Волочек                     ","latitude":57.55,   "longitude":34.57,"height":     167},
{"id":26406,"name": "Лиепа(Латвия)                      ","latitude":56.48,   "longitude":21.02,"height":       7},
{"id":26422,"name": "Рига(Латвия)                       ","latitude":56.98,   "longitude":24.05,"height":      26},
{"id":26477,"name": "Великие_Луки                       ","latitude":56.35,   "longitude":30.62,"height":     104},
{"id":26479,"name": "Торопец                            ","latitude":56.48,   "longitude":31.63,"height":     187},
{"id":26498,"name": "Ржев                               ","latitude":56.27,   "longitude":34.32,"height":     195},
{"id":26499,"name": "Старица                            ","latitude":56.50,   "longitude":34.93,"height":     184},
{"id":26578,"name": "Велиж                              ","latitude":55.60,   "longitude":31.20,"height":     165},
{"id":26585,"name": "Белый                              ","latitude":55.85,   "longitude":32.95,"height":     220},
{"id":26614,"name": "Советск                            ","latitude":55.08,   "longitude":21.93,"height":      37},
{"id":26629,"name": "Каунас(Литва)                      ","latitude":54.88,   "longitude":23.83,"height":      77},
{"id":26695,"name": "Вязьма                             ","latitude":55.20,   "longitude":34.40,"height":     257},
{"id":26701,"name": "Балтийск                           ","latitude":54.65,   "longitude":19.90,"height":       4},
{"id":26702,"name": "Калининград                        ","latitude":54.72,   "longitude":20.62,"height":      20},
{"id":26706,"name": "Железнодорожный                    ","latitude":54.38,   "longitude":21.30,"height":      49},
{"id":26730,"name": "Вильнюс(Литва)                     ","latitude":54.63,   "longitude":25.10,"height":     156},
{"id":26781,"name": "Смоленск                           ","latitude":54.75,   "longitude":32.07,"height":     236},
{"id":26795,"name": "Спас-Деменск                       ","latitude":54.42,   "longitude":34.02,"height":     237},
{"id":26850,"name": "Минск(Беларусь)                    ","latitude":53.93,   "longitude":27.63,"height":     231},
{"id":26882,"name": "Рославль                           ","latitude":53.93,   "longitude":32.83,"height":     219},
{"id":26894,"name": "Жуковка                            ","latitude":53.50,   "longitude":33.75,"height":     175},
{"id":26896,"name": "Жиздра                             ","latitude":53.75,   "longitude":34.73,"height":     193},
{"id":26898,"name": "Брянск                             ","latitude":53.25,   "longitude":34.32,"height":     214},
{"id":26976,"name": "Красная_Гора                       ","latitude":53.02,   "longitude":31.60,"height":     147},
{"id":26997,"name": "Трубчевск                          ","latitude":52.58,   "longitude":33.77,"height":     177},
{"id":27008,"name": "Бабаево                            ","latitude":59.40,   "longitude":35.93,"height":     136},
{"id":27026,"name": "Коробово                           ","latitude":59.63,   "longitude":39.30,"height":     132},
{"id":27037,"name": "Вологда                            ","latitude":59.32,   "longitude":39.92,"height":     125},
{"id":27051,"name": "Тотьма                             ","latitude":59.88,   "longitude":42.75,"height":     134},
{"id":27066,"name": "Никольск                           ","latitude":59.53,   "longitude":45.47,"height":     142},
{"id":27083,"name": "Опарино                            ","latitude":59.85,   "longitude":48.28,"height":     179},
{"id":27097,"name": "Мураши                             ","latitude":59.40,   "longitude":48.90,"height":     211},
{"id":27108,"name": "Охоны                              ","latitude":58.57,   "longitude":35.63,"height":     149},
{"id":27113,"name": "Череповец                          ","latitude":59.25,   "longitude":37.97,"height":     113},
{"id":27143,"name": "Солигалич                          ","latitude":59.10,   "longitude":42.30,"height":     143},
{"id":27164,"name": "Кологрив                           ","latitude":58.82,   "longitude":44.32,"height":     150},
{"id":27199,"name": "Киров                              ","latitude":58.52,   "longitude":49.32,"height":     157},
{"id":27208,"name": "Максатиха                          ","latitude":57.80,   "longitude":35.90,"height":     140},
{"id":27217,"name": "Бежецк                             ","latitude":57.80,   "longitude":36.70,"height":     140},
{"id":27225,"name": "Рыбинск                            ","latitude":58.10,   "longitude":38.68,"height":     104},
{"id":27242,"name": "Буй                                ","latitude":58.48,   "longitude":41.53,"height":     102},
{"id":27243,"name": "Галич                              ","latitude":58.38,   "longitude":42.37,"height":     134},
{"id":27252,"name": "Николо-Полома                      ","latitude":58.35,   "longitude":43.40,"height":     149},
{"id":27271,"name": "Шарья                              ","latitude":58.37,   "longitude":45.53,"height":     118},
{"id":27277,"name": "Ветлуга                            ","latitude":57.85,   "longitude":45.77,"height":     133},
{"id":27281,"name": "Шабалино                           ","latitude":58.30,   "longitude":47.10,"height":     166},
{"id":27283,"name": "Котельнич                          ","latitude":58.30,   "longitude":48.40,"height":     125},
{"id":27296,"name": "Кумены                             ","latitude":58.10,   "longitude":49.90,"height":     175},
{"id":27316,"name": "Кашин                              ","latitude":57.35,   "longitude":37.58,"height":     137},
{"id":27321,"name": "Углич                              ","latitude":57.50,   "longitude":39.30,"height":     120},
{"id":27329,"name": "Ростов                             ","latitude":57.20,   "longitude":39.42,"height":      99},
{"id":27330,"name": "Ярославль                          ","latitude":57.63,   "longitude":39.90,"height":      91},
{"id":27333,"name": "Кострома                           ","latitude":57.77,   "longitude":40.85,"height":     125},
{"id":27346,"name": "Кинешма                            ","latitude":57.45,   "longitude":42.17,"height":     125},
{"id":27355,"name": "Юрьевец                            ","latitude":57.33,   "longitude":43.12,"height":     132},
{"id":27369,"name": "Красные_баки                       ","latitude":57.13,   "longitude":45.17,"height":     111},
{"id":27373,"name": "Шахунья                            ","latitude":57.67,   "longitude":46.63,"height":     175},
{"id":27385,"name": "Яранск                             ","latitude":57.37,   "longitude":47.92,"height":     103},
{"id":27393,"name": "Нолинск                            ","latitude":57.55,   "longitude":49.95,"height":     137},
{"id":27402,"name": "Тверь                              ","latitude":56.87,   "longitude":35.92,"height":     140},
{"id":27412,"name": "Савелово                           ","latitude":56.90,   "longitude":37.40,"height":     122},
{"id":27417,"name": "Клин                               ","latitude":56.35,   "longitude":36.75,"height":     166},
{"id":27425,"name": "Переславль-Залесский               ","latitude":56.70,   "longitude":38.80,"height":     174},
{"id":27428,"name": "Александров                        ","latitude":56.40,   "longitude":38.75,"height":     185},
{"id":27441,"name": "Шуя                                ","latitude":56.85,   "longitude":41.40,"height":      99},
{"id":27453,"name": "Городец(Волжская)                  ","latitude":56.68,   "longitude":43.43,"height":     101},
{"id":27459,"name": "Нижний_Новгород                    ","latitude":56.30,   "longitude":44.00,"height":     161},
{"id":27462,"name": "Семенов                            ","latitude":56.73,   "longitude":44.52,"height":     118},
{"id":27479,"name": "Козьмодемьянск                     ","latitude":56.33,   "longitude":46.58,"height":     108},
{"id":27480,"name": "Санчурск                           ","latitude":56.90,   "longitude":47.30,"height":     103},
{"id":27485,"name": "Йошкар-Ола                         ","latitude":56.72,   "longitude":47.88,"height":     116},
{"id":27491,"name": "Новый_Торъял                       ","latitude":57.00,   "longitude":48.73,"height":     143},
{"id":27502,"name": "Волоколамск                        ","latitude":56.02,   "longitude":35.90,"height":     196},
{"id":27507,"name": "Гагарин                            ","latitude":55.50,   "longitude":35.00,"height":     194},
{"id":27509,"name": "Можайск                            ","latitude":55.52,   "longitude":36.00,"height":     184},
{"id":27511,"name": "Ново-Иерусалим                     ","latitude":55.90,   "longitude":36.82,"height":     159},
{"id":27523,"name": "Павлов-Посад                       ","latitude":55.80,   "longitude":38.70,"height":     134},
{"id":27532,"name": "Владимир                           ","latitude":56.10,   "longitude":40.35,"height":     167},
{"id":27539,"name": "Гусь-Хрустальный                   ","latitude":55.60,   "longitude":40.65,"height":     136},
{"id":27549,"name": "Муром                              ","latitude":55.60,   "longitude":42.03,"height":     115},
{"id":27577,"name": "Сергач                             ","latitude":55.53,   "longitude":45.50,"height":     126},
{"id":27581,"name": "Чебоксары                          ","latitude":56.08,   "longitude":47.33,"height":     162},
{"id":27587,"name": "Канаш                              ","latitude":55.52,   "longitude":47.47,"height":     182},
{"id":27595,"name": "Казань                             ","latitude":55.80,   "longitude":49.30,"height":     116},
{"id":27606,"name": "Малоярославец                      ","latitude":55.00,   "longitude":36.50,"height":     195},
{"id":27611,"name": "Наро-Фоминск                       ","latitude":55.40,   "longitude":36.80,"height":     190},
{"id":27612,"name": "Москва,ВДНХ                        ","latitude":55.83,   "longitude":37.62,"height":     147},
{"id":27618,"name": "Серпухов                           ","latitude":54.93,   "longitude":37.47,"height":     164},
{"id":27625,"name": "Коломна                            ","latitude":55.13,   "longitude":38.73,"height":     112},
{"id":27627,"name": "Кашира                             ","latitude":54.80,   "longitude":38.20,"height":     219},
{"id":27643,"name": "Выкса                              ","latitude":55.33,   "longitude":42.12,"height":     114},
{"id":27648,"name": "Елатьма                            ","latitude":54.95,   "longitude":41.77,"height":     132},
{"id":27653,"name": "Арзамас                            ","latitude":55.37,   "longitude":43.78,"height":     120},
{"id":27665,"name": "Лукоянов                           ","latitude":55.03,   "longitude":44.50,"height":     217},
{"id":27675,"name": "Порецкое                           ","latitude":55.18,   "longitude":46.33,"height":     136},
{"id":27679,"name": "Алатырь                            ","latitude":54.90,   "longitude":46.60,"height":     179},
{"id":27697,"name": "Тетюши                             ","latitude":54.93,   "longitude":48.85,"height":     155},
{"id":27703,"name": "Калуга                             ","latitude":54.57,   "longitude":36.40,"height":     198},
{"id":27707,"name": "Сухиничи                           ","latitude":54.10,   "longitude":35.35,"height":     237},
{"id":27719,"name": "Тула                               ","latitude":54.23,   "longitude":37.62,"height":     202},
{"id":27729,"name": "Михайлов                           ","latitude":54.20,   "longitude":39.00,"height":     173},
{"id":27730,"name": "Рязань                             ","latitude":54.63,   "longitude":39.70,"height":     155},
{"id":27736,"name": "Шилово                             ","latitude":54.30,   "longitude":40.90,"height":      98},
{"id":27745,"name": "Сасово                             ","latitude":54.35,   "longitude":41.97,"height":     114},
{"id":27752,"name": "Темников                           ","latitude":54.63,   "longitude":43.23,"height":     139},
{"id":27756,"name": "Краснослободск                     ","latitude":54.40,   "longitude":43.80,"height":     185},
{"id":27758,"name": "Торбеево                           ","latitude":54.08,   "longitude":43.25,"height":     187},
{"id":27760,"name": "Саранск                            ","latitude":54.12,   "longitude":45.15,"height":     195},
{"id":27776,"name": "Сурское                            ","latitude":54.50,   "longitude":46.70,"height":     100},
{"id":27786,"name": "Ульяновск                          ","latitude":54.32,   "longitude":48.33,"height":     122},
{"id":27799,"name": "Димитровград                       ","latitude":54.23,   "longitude":49.60,"height":      72},
{"id":27814,"name": "Плавск                             ","latitude":53.65,   "longitude":37.23,"height":     240},
{"id":27817,"name": "Мценск                             ","latitude":53.38,   "longitude":36.53,"height":     199},
{"id":27821,"name": "Узловая                            ","latitude":54.00,   "longitude":38.13,"height":     226},
{"id":27823,"name": "Павелец                            ","latitude":53.78,   "longitude":39.25,"height":     209},
{"id":27835,"name": "Ряжск                              ","latitude":53.70,   "longitude":40.10,"height":     125},
{"id":27848,"name": "Моршанск                           ","latitude":53.45,   "longitude":41.80,"height":     143},
{"id":27857,"name": "Земетчино                          ","latitude":53.48,   "longitude":42.63,"height":     131},
{"id":27858,"name": "Пачелма                            ","latitude":53.33,   "longitude":43.32,"height":     260},
{"id":27872,"name": "Инза                               ","latitude":53.85,   "longitude":46.40,"height":     175},
{"id":27891,"name": "Сенгилей                           ","latitude":54.00,   "longitude":48.80,"height":      85},
{"id":27894,"name": "Новодевичье                        ","latitude":53.60,   "longitude":48.80,"height":     142},
{"id":27906,"name": "Орел                               ","latitude":52.93,   "longitude":36.00,"height":     194},
{"id":27921,"name": "Ефремов                            ","latitude":53.15,   "longitude":38.12,"height":     216},
{"id":27928,"name": "Елец                               ","latitude":52.63,   "longitude":38.52,"height":     167},
{"id":27930,"name": "Липецк                             ","latitude":52.70,   "longitude":39.52,"height":     176},
{"id":27935,"name": "Мичуринск                          ","latitude":52.88,   "longitude":40.48,"height":     148},
{"id":27947,"name": "Тамбов                             ","latitude":52.80,   "longitude":41.33,"height":     127},
{"id":27957,"name": "Кирсанов                           ","latitude":52.67,   "longitude":42.72,"height":     169},
{"id":27962,"name": "Пенза                              ","latitude":53.12,   "longitude":45.02,"height":     169},
{"id":27983,"name": "Сызрань                            ","latitude":53.18,   "longitude":48.40,"height":     104},
{"id":27995,"name": "Безенчук                           ","latitude":53.00,   "longitude":49.40,"height":      45},
{"id":28009,"name": "Кирс                               ","latitude":59.37,   "longitude":52.22,"height":     167},
{"id":28028,"name": "Березники                          ","latitude":59.55,   "longitude":56.83,"height":     176},
{"id":28033,"name": "Карпинск                           ","latitude":59.75,   "longitude":60.00,"height":     231},
{"id":28044,"name": "Серов                              ","latitude":59.60,   "longitude":60.53,"height":     124},
{"id":28049,"name": "Гари                               ","latitude":59.43,   "longitude":62.33,"height":     128},
{"id":28064,"name": "Леуши                              ","latitude":59.62,   "longitude":65.72,"height":      70},
{"id":28076,"name": "Демьянское                         ","latitude":59.60,   "longitude":69.28,"height":      57},
{"id":28116,"name": "Кудымкар                           ","latitude":59.02,   "longitude":54.65,"height":     186},
{"id":28128,"name": "Чермоз                             ","latitude":58.80,   "longitude":56.20,"height":     122},
{"id":28131,"name": "Кизел                              ","latitude":59.03,   "longitude":57.57,"height":     305},
{"id":28138,"name": "Бисер                              ","latitude":58.52,   "longitude":58.85,"height":     463},
{"id":28144,"name": "Верхотурье                         ","latitude":58.87,   "longitude":60.78,"height":     124},
{"id":28202,"name": "Фаленки                            ","latitude":58.40,   "longitude":51.60,"height":     179},
{"id":28214,"name": "Глазов                             ","latitude":58.13,   "longitude":52.58,"height":     168},
{"id":28216,"name": "Верещагино                         ","latitude":58.10,   "longitude":54.70,"height":     238},
{"id":28224,"name": "Пермь                              ","latitude":58.00,   "longitude":56.30,"height":     171},
{"id":28234,"name": "Лысьва                             ","latitude":58.10,   "longitude":57.80,"height":     223},
{"id":28238,"name": "Кын                                ","latitude":57.83,   "longitude":58.65,"height":     244},
{"id":28240,"name": "Нижний_Тагил                       ","latitude":57.88,   "longitude":60.07,"height":     262},
{"id":28248,"name": "Алапаевск                          ","latitude":57.87,   "longitude":61.70,"height":     128},
{"id":28255,"name": "Туринск                            ","latitude":58.05,   "longitude":63.68,"height":     101},
{"id":28264,"name": "Тавда                              ","latitude":58.05,   "longitude":65.35,"height":      60},
{"id":28275,"name": "Тобольск                           ","latitude":58.15,   "longitude":68.25,"height":      45},
{"id":28302,"name": "Уни                                ","latitude":57.80,   "longitude":51.50,"height":     179},
{"id":28307,"name": "Уржум                              ","latitude":57.10,   "longitude":50.00,"height":     115},
{"id":28312,"name": "Дебессы                            ","latitude":57.63,   "longitude":53.82,"height":     187},
{"id":28319,"name": "Ножовка                            ","latitude":57.08,   "longitude":54.75,"height":     132},
{"id":28321,"name": "Оханск                             ","latitude":57.70,   "longitude":55.40,"height":     163},
{"id":28326,"name": "Кунгур                             ","latitude":57.42,   "longitude":56.93,"height":     153},
{"id":28334,"name": "Шамары                             ","latitude":57.40,   "longitude":58.20,"height":     247},
{"id":28346,"name": "Артемовский                        ","latitude":57.40,   "longitude":61.90,"height":     154},
{"id":28359,"name": "Тугулым                            ","latitude":57.10,   "longitude":64.70,"height":      89},
{"id":28367,"name": "Тюмень                             ","latitude":57.12,   "longitude":65.43,"height":     101},
{"id":28382,"name": "Усть-Ишим                          ","latitude":57.68,   "longitude":71.18,"height":      55},
{"id":28383,"name": "Тевриз                             ","latitude":57.52,   "longitude":72.40,"height":      65},
{"id":28402,"name": "Кильмезь                           ","latitude":56.90,   "longitude":51.10,"height":     143},
{"id":28409,"name": "Можга                              ","latitude":56.43,   "longitude":52.20,"height":     169},
{"id":28411,"name": "Ижевск                             ","latitude":56.83,   "longitude":53.45,"height":     155},
{"id":28418,"name": "Сарапул                            ","latitude":56.47,   "longitude":53.73,"height":     135},
{"id":28419,"name": "Янаул                              ","latitude":56.27,   "longitude":54.90,"height":      98},
{"id":28428,"name": "Чернушка                           ","latitude":56.50,   "longitude":56.13,"height":     148},
{"id":28434,"name": "Красноуфимск                       ","latitude":56.65,   "longitude":57.78,"height":     205},
{"id":28440,"name": "Екатеринбург                       ","latitude":56.83,   "longitude":60.63,"height":     280},
{"id":28445,"name": "Верхнее_Дуброво                    ","latitude":56.70,   "longitude":61.10,"height":     286},
{"id":28449,"name": "Каменск-Уральский                  ","latitude":56.40,   "longitude":61.90,"height":     170},
{"id":28451,"name": "Камышлов                           ","latitude":56.85,   "longitude":62.72,"height":     126},
{"id":28455,"name": "Бутка                              ","latitude":56.70,   "longitude":63.80,"height":     106},
{"id":28456,"name": "Шатрово                            ","latitude":56.50,   "longitude":64.65,"height":     114},
{"id":28465,"name": "Ялуторовск                         ","latitude":56.70,   "longitude":66.40,"height":      61},
{"id":28481,"name": "Викулово                           ","latitude":56.82,   "longitude":70.62,"height":      77},
{"id":28491,"name": "Большие_Уки                        ","latitude":56.90,   "longitude":72.70,"height":      87},
{"id":28493,"name": "Тара                               ","latitude":56.90,   "longitude":74.38,"height":      73},
{"id":28498,"name": "Колосовка                          ","latitude":56.45,   "longitude":73.65,"height":      97},
{"id":28502,"name": "Вятские_Поляны                     ","latitude":56.20,   "longitude":51.10,"height":      83},
{"id":28506,"name": "Елабуга                            ","latitude":55.80,   "longitude":52.10,"height":      90},
{"id":28517,"name": "Мензелинск                         ","latitude":55.60,   "longitude":53.10,"height":     111},
{"id":28522,"name": "Аскино                             ","latitude":56.10,   "longitude":56.60,"height":     206},
{"id":28533,"name": "Нязепетровск                       ","latitude":56.05,   "longitude":59.60,"height":     318},
{"id":28537,"name": "Дуван                              ","latitude":55.70,   "longitude":57.90,"height":     337},
{"id":28541,"name": "Верхний_Уфалей                     ","latitude":56.08,   "longitude":60.30,"height":     392},
{"id":28552,"name": "Шадринск                           ","latitude":56.08,   "longitude":63.63,"height":      88},
{"id":28561,"name": "Памятная                           ","latitude":56.02,   "longitude":65.70,"height":      66},
{"id":28573,"name": "Ишим                               ","latitude":56.10,   "longitude":69.43,"height":      82},
{"id":28586,"name": "Тюкалинск                          ","latitude":55.87,   "longitude":72.22,"height":     116},
{"id":28588,"name": "Называевск                         ","latitude":55.57,   "longitude":71.37,"height":     125},
{"id":28593,"name": "Большеречье                        ","latitude":56.10,   "longitude":74.63,"height":      76},
{"id":28598,"name": "Саргатское                         ","latitude":55.60,   "longitude":73.50,"height":      79},
{"id":28601,"name": "Чистополь                          ","latitude":55.30,   "longitude":50.60,"height":     136},
{"id":28611,"name": "Муслюмово                          ","latitude":55.32,   "longitude":53.20,"height":      78},
{"id":28615,"name": "Бакалы                             ","latitude":55.20,   "longitude":53.80,"height":     124},
{"id":28621,"name": "Бирск                              ","latitude":55.40,   "longitude":55.50,"height":     186},
{"id":28624,"name": "Кушнаренково                       ","latitude":55.10,   "longitude":55.40,"height":      98},
{"id":28629,"name": "Улу-Теляк                          ","latitude":54.90,   "longitude":56.90,"height":     154},
{"id":28630,"name": "Златоуст                           ","latitude":55.17,   "longitude":59.67,"height":     532},
{"id":28633,"name": "Таганай-Гора                       ","latitude":55.40,   "longitude":59.90,"height":    1108},
{"id":28637,"name": "Кропачево                          ","latitude":55.00,   "longitude":57.90,"height":     411},
{"id":28645,"name": "Челябинск_город                    ","latitude":55.15,   "longitude":61.30,"height":     234},
{"id":28655,"name": "Шумиха(Курганская обл.)            ","latitude":55.20,   "longitude":63.30,"height":     176},
{"id":28659,"name": "Куртамыш                           ","latitude":54.90,   "longitude":64.40,"height":     157},
{"id":28661,"name": "Курган-Вороновка                   ","latitude":55.47,   "longitude":65.40,"height":      71},
{"id":28666,"name": "Макушино                           ","latitude":55.20,   "longitude":67.30,"height":     138},
{"id":28668,"name": "Половинное                         ","latitude":54.80,   "longitude":66.00,"height":     150},
{"id":28679,"name": "Петропавловск(Казахстан)           ","latitude":54.83,   "longitude":69.15,"height":     142},
{"id":28688,"name": "Исилькуль                          ","latitude":54.90,   "longitude":71.30,"height":     125},
{"id":28696,"name": "Калачинск                          ","latitude":55.03,   "longitude":74.58,"height":     109},
{"id":28698,"name": "Омск                               ","latitude":55.00,   "longitude":73.40,"height":     121},
{"id":28704,"name": "Чулпаново                          ","latitude":54.50,   "longitude":50.40,"height":      76},
{"id":28705,"name": "Челно-Вершины                      ","latitude":54.40,   "longitude":51.10,"height":     157},
{"id":28710,"name": "Раевский                           ","latitude":54.10,   "longitude":54.90,"height":     121},
{"id":28711,"name": "Бугульма                           ","latitude":54.58,   "longitude":52.80,"height":     299},
{"id":28712,"name": "Туймазы                            ","latitude":54.60,   "longitude":53.70,"height":     132},
{"id":28719,"name": "Аксаково                           ","latitude":54.00,   "longitude":54.20,"height":     358},
{"id":28722,"name": "Уфа,Дема                           ","latitude":54.72,   "longitude":55.83,"height":     104},
{"id":28741,"name": "Мирный                             ","latitude":54.55,   "longitude":60.30,"height":     321},
{"id":28748,"name": "Троицк                             ","latitude":54.08,   "longitude":61.62,"height":     192},
{"id":28756,"name": "Звериноголовское                   ","latitude":54.47,   "longitude":64.87,"height":     118},
{"id":28786,"name": "Полтавка                           ","latitude":54.37,   "longitude":71.75,"height":     124},
{"id":28791,"name": "Шербакуль                          ","latitude":54.60,   "longitude":72.40,"height":     113},
{"id":28797,"name": "Одесское                           ","latitude":54.20,   "longitude":72.90,"height":     124},
{"id":28799,"name": "Черлак                             ","latitude":54.17,   "longitude":74.80,"height":     114},
{"id":28801,"name": "Красное_Поселенье                  ","latitude":53.90,   "longitude":50.40,"height":      64},
{"id":28802,"name": "Серноводск                         ","latitude":53.90,   "longitude":51.30,"height":     112},
{"id":28806,"name": "Бугуруслан                         ","latitude":53.62,   "longitude":52.45,"height":      93},
{"id":28823,"name": "Тукан                              ","latitude":53.90,   "longitude":57.40,"height":     551},
{"id":28825,"name": "Стерлитамак                        ","latitude":53.60,   "longitude":56.00,"height":     136},
{"id":28831,"name": "Белорецк                           ","latitude":53.93,   "longitude":58.33,"height":     534},
{"id":28833,"name": "Верхнеуральск                      ","latitude":53.90,   "longitude":59.20,"height":     401},
{"id":28838,"name": "Магнитогорск                       ","latitude":53.35,   "longitude":59.08,"height":     384},
{"id":28895,"name": "Русская_поляна                     ","latitude":53.78,   "longitude":73.88,"height":     127},
{"id":28900,"name": "Самара                             ","latitude":53.25,   "longitude":50.22,"height":     136},
{"id":28903,"name": "Боровое_лесничество                ","latitude":53.00,   "longitude":52.05,"height":      81},
{"id":28908,"name": "Авангард_зерносовхоз               ","latitude":52.60,   "longitude":51.30,"height":      87},
{"id":28909,"name": "Бузулук                            ","latitude":52.80,   "longitude":52.20,"height":      79},
{"id":28916,"name": "Шарлык                             ","latitude":52.90,   "longitude":54.75,"height":     190},
{"id":28925,"name": "Мелеуз                             ","latitude":52.95,   "longitude":55.97,"height":     180},
{"id":28941,"name": "Карталы                            ","latitude":53.05,   "longitude":60.70,"height":     298},
{"id":28952,"name": "Кустанай/Костонай(Казахстан)       ","latitude":53.21,   "longitude":63.61,"height":     170},
{"id":29023,"name": "Напас                              ","latitude":59.85,   "longitude":81.95,"height":      77},
{"id":29068,"name": "Назимово                           ","latitude":59.50,   "longitude":91.02,"height":      63},
{"id":29103,"name": "Катыльга                           ","latitude":59.10,   "longitude":76.70,"height":      68},
{"id":29111,"name": "Средний_Васюган                    ","latitude":59.20,   "longitude":78.20,"height":      68},
{"id":29128,"name": "Парабель                           ","latitude":58.70,   "longitude":81.50,"height":      59},
{"id":29154,"name": "Усть-Озерное                       ","latitude":58.88,   "longitude":87.75,"height":     113},
{"id":29209,"name": "Майск                              ","latitude":57.82,   "longitude":77.22,"height":      98},
{"id":29231,"name": "Колпашево                          ","latitude":58.30,   "longitude":82.95,"height":      73},
{"id":29253,"name": "Лосиноборское                      ","latitude":58.43,   "longitude":89.37,"height":     136},
{"id":29263,"name": "Енисейск                           ","latitude":58.45,   "longitude":92.10,"height":      77},
{"id":29274,"name": "Стрелка                            ","latitude":58.08,   "longitude":93.00,"height":      87},
{"id":29282,"name": "Богучаны                           ","latitude":58.38,   "longitude":97.45,"height":     131},
{"id":29313,"name": "Пудино                             ","latitude":57.57,   "longitude":79.43,"height":      96},
{"id":29328,"name": "Бакчар                             ","latitude":57.00,   "longitude":82.07,"height":     109},
{"id":29332,"name": "Молчаново                          ","latitude":57.58,   "longitude":83.78,"height":     112},
{"id":29348,"name": "Первомайское                       ","latitude":57.07,   "longitude":86.22,"height":     114},
{"id":29363,"name": "Пировское                          ","latitude":57.60,   "longitude":92.30,"height":     180},
{"id":29379,"name": "Тасеево                            ","latitude":57.20,   "longitude":94.55,"height":     163},
{"id":29393,"name": "Червянка                           ","latitude":57.65,   "longitude":99.53,"height":     219},
{"id":29405,"name": "Кыштовка                           ","latitude":56.60,   "longitude":76.60,"height":     116},
{"id":29418,"name": "Северное                           ","latitude":56.35,   "longitude":78.35,"height":     124},
{"id":29430,"name": "Томск                              ","latitude":56.50,   "longitude":84.92,"height":     141},
{"id":29456,"name": "Тюхтет                             ","latitude":56.50,   "longitude":89.30,"height":     204},
{"id":29464,"name": "Большой_Улуй                       ","latitude":56.70,   "longitude":90.60,"height":     231},
{"id":29467,"name": "Ачинск                             ","latitude":56.28,   "longitude":90.50,"height":     265},
{"id":29471,"name": "Большая_Мурта                      ","latitude":56.90,   "longitude":93.13,"height":     180},
{"id":29477,"name": "Сухобузимское                      ","latitude":56.50,   "longitude":93.30,"height":     164},
{"id":29481,"name": "Дзержинское                        ","latitude":56.90,   "longitude":95.20,"height":     188},
{"id":29498,"name": "Шиткино                            ","latitude":56.35,   "longitude":98.37,"height":     220},
{"id":29524,"name": "Крещенка                           ","latitude":55.85,   "longitude":80.03,"height":     127},
{"id":29532,"name": "Кожевниково                        ","latitude":56.25,   "longitude":84.00,"height":      91},
{"id":29539,"name": "Болотное                           ","latitude":55.67,   "longitude":84.40,"height":     191},
{"id":29541,"name": "Тайга                              ","latitude":56.07,   "longitude":85.62,"height":     250},
{"id":29551,"name": "Мариинск                           ","latitude":56.20,   "longitude":87.78,"height":     142},
{"id":29552,"name": "Тяжин                              ","latitude":56.10,   "longitude":88.60,"height":     222},
{"id":29553,"name": "Боготол                            ","latitude":56.23,   "longitude":89.58,"height":     288},
{"id":29557,"name": "Тисуль                             ","latitude":55.75,   "longitude":88.32,"height":     210},
{"id":29562,"name": "Кемчуг                             ","latitude":56.10,   "longitude":91.70,"height":     340},
{"id":29563,"name": "Кача                               ","latitude":56.10,   "longitude":92.20,"height":     479},
{"id":29566,"name": "Шумиха(Красноярск.край)            ","latitude":55.90,   "longitude":92.30,"height":     278},
{"id":29570,"name": "Красноярск,опытное_поле            ","latitude":56.03,   "longitude":92.75,"height":     277},
{"id":29576,"name": "Уяр                                ","latitude":55.80,   "longitude":94.30,"height":     374},
{"id":29580,"name": "Солянка                            ","latitude":56.20,   "longitude":95.30,"height":     359},
{"id":29581,"name": "Канск                              ","latitude":56.20,   "longitude":95.63,"height":     202},
{"id":29587,"name": "Ирбейское                          ","latitude":55.63,   "longitude":95.47,"height":     250},
{"id":29594,"name": "Тайшет                             ","latitude":55.95,   "longitude":98.00,"height":     305},
{"id":29602,"name": "Чаны                               ","latitude":55.30,   "longitude":76.75,"height":     110},
{"id":29605,"name": "Татарск                            ","latitude":55.20,   "longitude":75.97,"height":     112},
{"id":29612,"name": "Барабинск                          ","latitude":55.33,   "longitude":78.37,"height":     119},
{"id":29613,"name": "Убинское                           ","latitude":55.30,   "longitude":79.60,"height":     137},
{"id":29625,"name": "Чулым                              ","latitude":55.10,   "longitude":80.97,"height":     140},
{"id":29626,"name": "Коченево                           ","latitude":55.00,   "longitude":82.20,"height":     158},
{"id":29631,"name": "Колывань                           ","latitude":55.30,   "longitude":82.72,"height":     145},
{"id":29632,"name": "Мошково                            ","latitude":55.30,   "longitude":83.60,"height":     200},
{"id":29636,"name": "Тогучин                            ","latitude":55.20,   "longitude":84.40,"height":     172},
{"id":29638,"name": "Огурцово                           ","latitude":54.90,   "longitude":82.95,"height":     131},
{"id":29645,"name": "Кемерово                           ","latitude":55.25,   "longitude":86.22,"height":     148},
{"id":29649,"name": "Крапивино                          ","latitude":55.00,   "longitude":86.80,"height":     151},
{"id":29653,"name": "Ужур                               ","latitude":55.30,   "longitude":89.80,"height":     386},
{"id":29654,"name": "Центральный_Рудник                 ","latitude":55.20,   "longitude":87.65,"height":     496},
{"id":29662,"name": "Балахта                            ","latitude":55.40,   "longitude":91.70,"height":     319},
{"id":29664,"name": "Светлолобово                       ","latitude":55.10,   "longitude":90.80,"height":     326},
{"id":29675,"name": "Колба                              ","latitude":55.10,   "longitude":93.40,"height":     465},
{"id":29676,"name": "Агинское                           ","latitude":55.25,   "longitude":94.88,"height":     335},
{"id":29698,"name": "Нижнеудинск                        ","latitude":54.88,   "longitude":99.03,"height":     410},
{"id":29706,"name": "Купино                             ","latitude":54.37,   "longitude":77.32,"height":     115},
{"id":29712,"name": "Здвинск                            ","latitude":54.70,   "longitude":78.70,"height":     112},
{"id":29724,"name": "Кочки                              ","latitude":54.30,   "longitude":80.50,"height":     160},
{"id":29726,"name": "Ордынское                          ","latitude":54.40,   "longitude":81.90,"height":     132},
{"id":29735,"name": "Посевная                           ","latitude":54.30,   "longitude":83.32,"height":     292},
{"id":29736,"name": "Маслянино                          ","latitude":54.33,   "longitude":84.22,"height":     200},
{"id":29752,"name": "Ненастная                          ","latitude":54.75,   "longitude":88.82,"height":    1186},
{"id":29756,"name": "Шира                               ","latitude":54.50,   "longitude":89.93,"height":     477},
{"id":29759,"name": "Коммунар                           ","latitude":54.20,   "longitude":89.40,"height":     842},
{"id":29766,"name": "Идринское                          ","latitude":54.37,   "longitude":92.13,"height":     280},
{"id":29789,"name": "Верхняя_Гутара                     ","latitude":54.22,   "longitude":96.97,"height":     983},
{"id":29807,"name": "Иртышск(Казахстан)                 ","latitude":53.35,   "longitude":75.45,"height":      94},
{"id":29813,"name": "Краснозерск                        ","latitude":53.98,   "longitude":79.25,"height":     153},
{"id":29814,"name": "Карасук                            ","latitude":53.70,   "longitude":78.07,"height":     115},
{"id":29816,"name": "Хабары                             ","latitude":53.60,   "longitude":79.65,"height":     138},
{"id":29822,"name": "Камень-на-Оби                      ","latitude":53.80,   "longitude":81.28,"height":     127},
{"id":29827,"name": "Баево                              ","latitude":53.30,   "longitude":80.80,"height":     121},
{"id":29832,"name": "Тальменка                          ","latitude":53.80,   "longitude":83.60,"height":     144},
{"id":29838,"name": "Барнаул                            ","latitude":53.40,   "longitude":83.50,"height":     183},
{"id":29848,"name": "Тогул                              ","latitude":53.47,   "longitude":85.92,"height":     271},
{"id":29849,"name": "Кузедеево                          ","latitude":53.30,   "longitude":87.20,"height":     293},
{"id":29858,"name": "Неожиданный                        ","latitude":53.28,   "longitude":89.07,"height":     527},
{"id":29862,"name": "Абакан                             ","latitude":53.77,   "longitude":91.32,"height":     254},
{"id":29864,"name": "Уйбат                              ","latitude":53.72,   "longitude":90.37,"height":     524},
{"id":29866,"name": "Минусинск                          ","latitude":53.70,   "longitude":91.70,"height":     254},
{"id":29869,"name": "Ермаковское                        ","latitude":53.30,   "longitude":92.42,"height":     300},
{"id":29892,"name": "Хадама                             ","latitude":53.95,   "longitude":98.82,"height":     706},
{"id":29894,"name": "Алыкджер                           ","latitude":53.63,   "longitude":98.22,"height":     917},
{"id":29915,"name": "Славгород                          ","latitude":52.97,   "longitude":78.65,"height":     125},
{"id":29923,"name": "Ребриха                            ","latitude":53.07,   "longitude":82.30,"height":     218},
{"id":29937,"name": "Алейская                           ","latitude":52.50,   "longitude":82.80,"height":     174},
{"id":29939,"name": "Бийск-Зональная                    ","latitude":52.68,   "longitude":84.95,"height":     224},
{"id":29946,"name": "Кондома                            ","latitude":52.80,   "longitude":87.30,"height":     352},
{"id":29956,"name": "Таштып                             ","latitude":52.72,   "longitude":89.88,"height":     449},
{"id":29962,"name": "Бея                                ","latitude":53.10,   "longitude":90.90,"height":     468},
{"id":29974,"name": "Оленья_речка                       ","latitude":52.80,   "longitude":93.23,"height":    1404},
{"id":29998,"name": "Орлик                              ","latitude":52.50,   "longitude":99.80,"height":    1376},
{"id":30028,"name": "Ика                                ","latitude":59.28,  "longitude":106.17,"height":     350},
{"id":30054,"name": "Витим                              ","latitude":59.45,  "longitude":112.58,"height":     186},
{"id":30069,"name": "Перевоз                            ","latitude":59.00,  "longitude":116.92,"height":     330},
{"id":30089,"name": "Джикимда                           ","latitude":59.02,  "longitude":121.77,"height":     174},
{"id":30102,"name": "Кежма                              ","latitude":58.97,  "longitude":101.10,"height":     183},
{"id":30138,"name": "Чечуйск                            ","latitude":58.10,  "longitude":108.68,"height":     244},
{"id":30142,"name": "Визирный                           ","latitude":58.88,  "longitude":111.25,"height":     226},
{"id":30151,"name": "Воронцовка                         ","latitude":58.85,  "longitude":112.90,"height":     201},
{"id":30157,"name": "Мама                               ","latitude":58.32,  "longitude":112.87,"height":     219},
{"id":30209,"name": "Ершово                             ","latitude":57.12,  "longitude":102.30,"height":     371},
{"id":30219,"name": "Максимово                          ","latitude":57.10,  "longitude":104.97,"height":     354},
{"id":30229,"name": "Верхнее-Марково                    ","latitude":57.33,  "longitude":107.07,"height":     271},
{"id":30230,"name": "Киренск                            ","latitude":57.77,  "longitude":108.07,"height":     256},
{"id":30252,"name": "Мамакан                            ","latitude":57.82,  "longitude":114.02,"height":     244},
{"id":30253,"name": "Бодайбо                            ","latitude":57.85,  "longitude":114.23,"height":     280},
{"id":30309,"name": "Братск                             ","latitude":56.28,  "longitude":101.75,"height":     411},
{"id":30328,"name": "Орлинга                            ","latitude":56.05,  "longitude":105.83,"height":     338},
{"id":30337,"name": "Казачинское                        ","latitude":56.32,  "longitude":107.62,"height":     355},
{"id":30356,"name": "Таксимо                            ","latitude":56.38,  "longitude":114.83,"height":     513},
{"id":30372,"name": "Чара                               ","latitude":56.90,  "longitude":118.27,"height":     709},
{"id":30385,"name": "Усть-Нюкжа                         ","latitude":56.58,  "longitude":121.48,"height":     440},
{"id":30393,"name": "Чульман                            ","latitude":56.83,  "longitude":124.87,"height":     855},
{"id":30405,"name": "Тангуй                             ","latitude":55.38,  "longitude":101.03,"height":     421},
{"id":30424,"name": "Головское                          ","latitude":55.48,  "longitude":105.48,"height":     372},
{"id":30433,"name": "Нижнеангарск                       ","latitude":55.78,  "longitude":109.55,"height":     477},
{"id":30437,"name": "Карам                              ","latitude":55.15,  "longitude":107.62,"height":     495},
{"id":30439,"name": "Томпа                              ","latitude":55.12,  "longitude":109.75,"height":     464},
{"id":30455,"name": "Уакит                              ","latitude":55.47,  "longitude":113.62,"height":    1099},
{"id":30457,"name": "Баунт                              ","latitude":55.30,  "longitude":113.10,"height":    1085},
{"id":30469,"name": "Калакан                            ","latitude":55.12,  "longitude":116.77,"height":     612},
{"id":30471,"name": "Средний_Калар                      ","latitude":55.87,  "longitude":117.37,"height":     748},
{"id":30484,"name": "Средняя_Олекма                     ","latitude":55.43,  "longitude":120.55,"height":     526},
{"id":30493,"name": "Нагорный                           ","latitude":55.97,  "longitude":124.88,"height":     860},
{"id":30499,"name": "Тында                              ","latitude":55.18,  "longitude":124.67,"height":     529},
{"id":30504,"name": "Тулун                              ","latitude":54.60,  "longitude":100.63,"height":     523},
{"id":30507,"name": "Икей                               ","latitude":54.18,  "longitude":100.08,"height":     526},
{"id":30514,"name": "Усть-Уда                           ","latitude":54.17,  "longitude":103.02,"height":     427},
{"id":30521,"name": "Жигалово                           ","latitude":54.80,  "longitude":105.17,"height":     417},
{"id":30536,"name": "Баргузинский_заповедник            ","latitude":54.33,  "longitude":109.53,"height":     468},
{"id":30537,"name": "Солнечная                          ","latitude":54.03,  "longitude":108.27,"height":     463},
{"id":30542,"name": "Тасса                              ","latitude":54.85,  "longitude":111.15,"height":     562},
{"id":30549,"name": "Карафтит                           ","latitude":54.20,  "longitude":111.95,"height":    1302},
{"id":30554,"name": "Багдарин                           ","latitude":54.47,  "longitude":113.58,"height":     901},
{"id":30555,"name": "Троицкий_прииск                    ","latitude":54.60,  "longitude":113.10,"height":    1315},
{"id":30565,"name": "Усть-Каренга                       ","latitude":54.40,  "longitude":116.50,"height":     686},
{"id":30576,"name": "Тупик                              ","latitude":54.40,  "longitude":119.90,"height":     642},
{"id":30603,"name": "Зима                               ","latitude":53.93,  "longitude":102.05,"height":     457},
{"id":30606,"name": "Залари                             ","latitude":53.55,  "longitude":102.50,"height":     449},
{"id":30612,"name": "Балаганск                          ","latitude":54.00,  "longitude":103.07,"height":     428},
{"id":30618,"name": "Бохан                              ","latitude":53.13,  "longitude":103.77,"height":     445},
{"id":30627,"name": "Баяндай                            ","latitude":53.10,  "longitude":105.53,"height":     757},
{"id":30632,"name": "Большой_Ушканий_остров             ","latitude":53.85,  "longitude":108.58,"height":     458},
{"id":30635,"name": "Усть-Баргузин                      ","latitude":53.42,  "longitude":109.02,"height":     459},
{"id":30636,"name": "Баргузин                           ","latitude":53.60,  "longitude":109.60,"height":     488},
{"id":30650,"name": "Романовка                          ","latitude":53.20,  "longitude":112.80,"height":     920},
{"id":30664,"name": "Тунгокочен                         ","latitude":53.53,  "longitude":115.62,"height":     810},
{"id":30669,"name": "Зилово                             ","latitude":53.10,  "longitude":117.50,"height":     700},
{"id":30673,"name": "Могоча                             ","latitude":53.75,  "longitude":119.73,"height":     624},
{"id":30675,"name": "Ксеньевская                        ","latitude":53.50,  "longitude":118.70,"height":     583},
{"id":30679,"name": "Горбица                            ","latitude":53.10,  "longitude":119.20,"height":     382},
{"id":30682,"name": "Амазар                             ","latitude":53.87,  "longitude":120.87,"height":     471},
{"id":30683,"name": "Ерофей_Павлович                    ","latitude":53.97,  "longitude":121.93,"height":     521},
{"id":30686,"name": "Игнашино                           ","latitude":53.50,  "longitude":122.40,"height":     293},
{"id":30688,"name": "Покровка                           ","latitude":53.35,  "longitude":121.55,"height":     313},
{"id":30692,"name": "Сковородино                        ","latitude":54.00,  "longitude":123.97,"height":     397},
{"id":30695,"name": "Джалинда                           ","latitude":53.50,  "longitude":123.90,"height":     266},
{"id":30703,"name": "Инга                               ","latitude":52.97,  "longitude":101.98,"height":     541},
{"id":30710,"name": "Иркутск                            ","latitude":52.27,  "longitude":104.35,"height":     467},
{"id":30713,"name": "Усть-Ордынский                     ","latitude":52.82,  "longitude":104.77,"height":     524},
{"id":30715,"name": "Ангарск                            ","latitude":52.48,  "longitude":103.85,"height":     436},
{"id":30716,"name": "Хомутово                           ","latitude":52.47,  "longitude":104.37,"height":     453},
{"id":30726,"name": "Сухая                              ","latitude":52.57,  "longitude":107.13,"height":     458},
{"id":30727,"name": "Большое_Голоустное                 ","latitude":52.03,  "longitude":105.42,"height":     461},
{"id":30729,"name": "Кабанск                            ","latitude":52.05,  "longitude":106.65,"height":     466},
{"id":30731,"name": "Горячинск                          ","latitude":53.00,  "longitude":108.30,"height":     488},
{"id":30739,"name": "Хоринск                            ","latitude":52.20,  "longitude":109.80,"height":     665},
{"id":30741,"name": "Замакта                            ","latitude":52.80,  "longitude":109.97,"height":    1288},
{"id":30745,"name": "Сосново-Озерское                   ","latitude":52.53,  "longitude":111.55,"height":     952},
{"id":30758,"name": "Чита                               ","latitude":52.08,  "longitude":113.48,"height":     671},
{"id":30764,"name": "Усугли                             ","latitude":52.65,  "longitude":115.20,"height":     644},
{"id":30765,"name": "Зюльзя                             ","latitude":52.55,  "longitude":116.20,"height":     533},
{"id":30766,"name": "Чернышевск                         ","latitude":52.50,  "longitude":117.00,"height":     538},
{"id":30768,"name": "Нерчинск                           ","latitude":52.00,  "longitude":116.50,"height":     477},
{"id":30772,"name": "Усть-Карск                         ","latitude":52.70,  "longitude":118.80,"height":     402},
{"id":30777,"name": "Сретенск                           ","latitude":52.23,  "longitude":117.70,"height":     528},
{"id":30781,"name": "Урюпино                            ","latitude":52.75,  "longitude":120.00,"height":     367},
{"id":30802,"name": "Монды                              ","latitude":51.68,  "longitude":100.98,"height":    1303},
{"id":30811,"name": "Тунка                              ","latitude":51.73,  "longitude":102.53,"height":     720},
{"id":30815,"name": "Хамар-Дабан                        ","latitude":51.53,  "longitude":103.60,"height":    1442},
{"id":30822,"name": "Бабушкин                           ","latitude":51.72,  "longitude":105.85,"height":     466},
{"id":30823,"name": "Улан-Удэ                           ","latitude":51.83,  "longitude":107.60,"height":     514},
{"id":30824,"name": "Танхой                             ","latitude":51.57,  "longitude":105.10,"height":     472},
{"id":30825,"name": "Иволгинск                          ","latitude":51.75,  "longitude":107.30,"height":     562},
{"id":30829,"name": "Ново-Селенгинск                    ","latitude":51.10,  "longitude":106.75,"height":     556},
{"id":30838,"name": "Петровский_Завод                   ","latitude":51.30,  "longitude":108.90,"height":     810},
{"id":30843,"name": "Могзон                             ","latitude":51.73,  "longitude":112.00,"height":     906},
{"id":30844,"name": "Хилок                              ","latitude":51.35,  "longitude":110.47,"height":     800},
{"id":30846,"name": "Улеты                              ","latitude":51.35,  "longitude":112.47,"height":     743},
{"id":30853,"name": "Карымская                          ","latitude":51.63,  "longitude":114.32,"height":     619},
{"id":30859,"name": "Агинское                           ","latitude":51.10,  "longitude":114.52,"height":     680},
{"id":30862,"name": "Шилка                              ","latitude":51.90,  "longitude":116.00,"height":     596},
{"id":30874,"name": "Шелопугино                         ","latitude":51.65,  "longitude":117.60,"height":     713},
{"id":30879,"name": "Нерчинский_завод                   ","latitude":51.32,  "longitude":119.62,"height":     621},
{"id":30915,"name": "Цакир                              ","latitude":50.43,  "longitude":103.60,"height":     984},
{"id":30925,"name": "Кяхта                              ","latitude":50.37,  "longitude":106.45,"height":     791},
{"id":30934,"name": "Бичура                             ","latitude":50.60,  "longitude":107.60,"height":     636},
{"id":30935,"name": "Красный_Чикой                      ","latitude":50.37,  "longitude":108.75,"height":     770},
{"id":30938,"name": "Менза                              ","latitude":49.43,  "longitude":108.85,"height":     934},
{"id":30949,"name": "Кыра                               ","latitude":49.57,  "longitude":111.97,"height":     907},
{"id":30954,"name": "Мангут                             ","latitude":49.70,  "longitude":112.67,"height":     807},
{"id":30957,"name": "Акша                               ","latitude":50.30,  "longitude":113.30,"height":     731},
{"id":30961,"name": "Оловянная                          ","latitude":50.95,  "longitude":115.58,"height":     642},
{"id":30965,"name": "Борзя                              ","latitude":50.40,  "longitude":116.52,"height":     675},
{"id":30967,"name": "Соловьевск                         ","latitude":49.90,  "longitude":115.85,"height":     620},
{"id":30971,"name": "Александровский_Завод              ","latitude":50.90,  "longitude":117.90,"height":     805},
{"id":30972,"name": "Доно                               ","latitude":50.90,  "longitude":118.60,"height":     694},
{"id":30975,"name": "Приаргунск                         ","latitude":50.40,  "longitude":119.10,"height":     521},
{"id":30978,"name": "Кайластуй                          ","latitude":49.80,  "longitude":118.40,"height":     547},
{"id":31004,"name": "Алдан                              ","latitude":58.62,  "longitude":125.03,"height":     678},
{"id":31005,"name": "Томмот                             ","latitude":58.97,  "longitude":126.27,"height":     283},
{"id":31026,"name": "Учур                               ","latitude":58.73,  "longitude":130.62,"height":     194},
{"id":31054,"name": "Усть-Юдома                         ","latitude":59.20,  "longitude":135.15,"height":     210},
{"id":31062,"name": "Югаренок                           ","latitude":59.77,  "longitude":137.67,"height":     380},
{"id":31088,"name": "Охотск                             ","latitude":59.37,  "longitude":143.20,"height":       5},
{"id":31092,"name": "Талон                              ","latitude":59.77,  "longitude":148.63,"height":      19},
{"id":31102,"name": "Канку                              ","latitude":57.65,  "longitude":125.97,"height":    1204},
{"id":31123,"name": "Чюльбю                             ","latitude":57.77,  "longitude":130.90,"height":     254},
{"id":31137,"name": "Токо                               ","latitude":56.28,  "longitude":131.13,"height":     849},
{"id":31152,"name": "Нелькан                            ","latitude":57.65,  "longitude":136.15,"height":     326},
{"id":31168,"name": "Аян                                ","latitude":56.45,  "longitude":138.15,"height":       6},
{"id":31174,"name": "Большой_Сантар                     ","latitude":54.83,  "longitude":137.53,"height":       9},
{"id":31199,"name": "Унаха                              ","latitude":55.03,  "longitude":126.80,"height":     452},
{"id":31235,"name": "Джана                              ","latitude":55.33,  "longitude":134.50,"height":     318},
{"id":31253,"name": "Бомнак                             ","latitude":54.72,  "longitude":128.87,"height":     365},
{"id":31263,"name": "Локшак                             ","latitude":54.73,  "longitude":130.45,"height":     462},
{"id":31285,"name": "Удское                             ","latitude":54.50,  "longitude":134.42,"height":      62},
{"id":31286,"name": "Чумикан                            ","latitude":54.70,  "longitude":135.30,"height":       7},
{"id":31299,"name": "Тыгда                              ","latitude":53.10,  "longitude":126.35,"height":     314},
{"id":31311,"name": "Огорон                             ","latitude":53.88,  "longitude":129.07,"height":     402},
{"id":31318,"name": "Дугда(Нора)                        ","latitude":53.35,  "longitude":130.00,"height":     319},
{"id":31329,"name": "Экимчан                            ","latitude":53.08,  "longitude":132.98,"height":     540},
{"id":31348,"name": "Бурукан                            ","latitude":53.10,  "longitude":136.00,"height":     153},
{"id":31362,"name": "Литке                              ","latitude":53.95,  "longitude":140.33,"height":      22},
{"id":31369,"name": "Николаевск-на-Амуре                ","latitude":53.13,  "longitude":140.70,"height":      45},
{"id":31371,"name": "Черняево                           ","latitude":52.78,  "longitude":126.00,"height":     208},
{"id":31373,"name": "Октябрьский_прииск                 ","latitude":53.00,  "longitude":128.70,"height":     332},
{"id":31388,"name": "Норск                              ","latitude":52.40,  "longitude":129.90,"height":     207},
{"id":31392,"name": "Стойба                             ","latitude":52.80,  "longitude":131.70,"height":     365},
{"id":31397,"name": "Февральск(Бысса)                   ","latitude":52.40,  "longitude":131.30,"height":     266},
{"id":31416,"name": "Им.Полины_Осипенко                 ","latitude":52.42,  "longitude":136.50,"height":      69},
{"id":31418,"name": "Веселая_Горка                      ","latitude":52.30,  "longitude":135.80,"height":     201},
{"id":31421,"name": "Гуга                               ","latitude":52.70,  "longitude":137.53,"height":      60},
{"id":31436,"name": "Джаоре                             ","latitude":52.70,  "longitude":141.30,"height":       5},
{"id":31439,"name": "Богородское                        ","latitude":52.38,  "longitude":140.47,"height":      33},
{"id":31442,"name": "Шимановская                        ","latitude":51.98,  "longitude":127.65,"height":     280},
{"id":31443,"name": "Мазаново                           ","latitude":51.63,  "longitude":128.82,"height":     161},
{"id":31445,"name": "Свободный                          ","latitude":51.45,  "longitude":128.12,"height":     195},
{"id":31459,"name": "Верхняя_Томь                       ","latitude":51.35,  "longitude":130.43,"height":     260},
{"id":31469,"name": "Чегдомын                           ","latitude":51.20,  "longitude":133.00,"height":     370},
{"id":31474,"name": "Усть-Умальта                       ","latitude":51.63,  "longitude":133.27,"height":     383},
{"id":31478,"name": "Софийский_прииск                   ","latitude":52.27,  "longitude":133.98,"height":     902},
{"id":31484,"name": "Хуларин                            ","latitude":51.42,  "longitude":135.08,"height":     268},
{"id":31489,"name": "Горин                              ","latitude":51.20,  "longitude":136.80,"height":      90},
{"id":31510,"name": "Благовещенск                       ","latitude":50.25,  "longitude":127.50,"height":     168},
{"id":31513,"name": "Белогорск                          ","latitude":50.90,  "longitude":128.50,"height":     178},
{"id":31521,"name": "Братолюбовка                       ","latitude":50.80,  "longitude":129.30,"height":     231},
{"id":31527,"name": "Завитая                            ","latitude":50.10,  "longitude":129.50,"height":     238},
{"id":31532,"name": "Чекунда                            ","latitude":50.80,  "longitude":132.20,"height":     271},
{"id":31534,"name": "Сектагли                           ","latitude":50.40,  "longitude":131.00,"height":     276},
{"id":31538,"name": "Сутур                              ","latitude":50.10,  "longitude":132.10,"height":     343},
{"id":31562,"name": "Нижнетамбовское                    ","latitude":50.90,  "longitude":138.20,"height":      17},
{"id":31583,"name": "Малиновка                          ","latitude":49.80,  "longitude":129.90,"height":     114},
{"id":31586,"name": "Константиновка                     ","latitude":49.60,  "longitude":128.00,"height":     117},
{"id":31587,"name": "Поярково                           ","latitude":49.60,  "longitude":128.70,"height":     115},
{"id":31594,"name": "Архара                             ","latitude":49.42,  "longitude":130.08,"height":     134},
{"id":31624,"name": "Урми                               ","latitude":49.40,  "longitude":133.20,"height":     200},
{"id":31632,"name": "Кур                                ","latitude":49.90,  "longitude":134.60,"height":     283},
{"id":31636,"name": "Неран                              ","latitude":49.55,  "longitude":134.73,"height":     227},
{"id":31655,"name": "Троицкое                           ","latitude":49.45,  "longitude":136.57,"height":      33},
{"id":31677,"name": "Солекуль                           ","latitude":49.20,  "longitude":138.10,"height":     915},
{"id":31702,"name": "Облучье                            ","latitude":49.00,  "longitude":131.08,"height":     265},
{"id":31703,"name": "Биракан                            ","latitude":49.00,  "longitude":131.73,"height":     272},
{"id":31707,"name": "Екатерино-Никольское               ","latitude":47.73,  "longitude":130.97,"height":      71},
{"id":31710,"name": "Ленинское                          ","latitude":47.95,  "longitude":132.60,"height":      55},
{"id":31713,"name": "Биробиджан                         ","latitude":48.70,  "longitude":132.95,"height":      80},
{"id":31725,"name": "Смидович                           ","latitude":48.62,  "longitude":133.83,"height":      50},
{"id":31733,"name": "Елабуга                            ","latitude":48.82,  "longitude":135.88,"height":      62},
{"id":31735,"name": "Хабаровск,агро                     ","latitude":48.52,  "longitude":135.23,"height":      75},
{"id":31754,"name": "Тивяку                             ","latitude":48.60,  "longitude":137.10,"height":     405},
{"id":31770,"name": "Советская_Гавань                   ","latitude":49.00,  "longitude":140.30,"height":      21},
{"id":31786,"name": "Вяземская                          ","latitude":47.60,  "longitude":134.80,"height":      86},
{"id":31788,"name": "Лермонтовка                        ","latitude":47.10,  "longitude":134.30,"height":      75},
{"id":31792,"name": "Бичевая                            ","latitude":47.80,  "longitude":135.60,"height":     104},
{"id":31801,"name": "Гвасюги                            ","latitude":47.70,  "longitude":136.20,"height":     180},
{"id":31825,"name": "Агзу                               ","latitude":47.60,  "longitude":138.40,"height":     166},
{"id":31829,"name": "Золотой_мыс                        ","latitude":47.32,  "longitude":138.98,"height":      27},
{"id":31832,"name": "Бикин                              ","latitude":46.80,  "longitude":134.27,"height":      70},
{"id":31845,"name": "Красный_Яр                         ","latitude":46.53,  "longitude":135.30,"height":     128},
{"id":31866,"name": "Сосуново                           ","latitude":46.53,  "longitude":138.33,"height":       2},
{"id":31873,"name": "Дальнереченск                      ","latitude":45.87,  "longitude":133.73,"height":     100},
{"id":31884,"name": "Малиново                           ","latitude":45.40,  "longitude":134.28,"height":     138},
{"id":31895,"name": "Мельничное                         ","latitude":45.45,  "longitude":135.50,"height":     331},
{"id":31909,"name": "Терней                             ","latitude":45.00,  "longitude":136.60,"height":      51},
{"id":31913,"name": "Турий_Рог                          ","latitude":45.20,  "longitude":132.00,"height":      92},
{"id":31915,"name": "Пограничный                        ","latitude":44.40,  "longitude":131.38,"height":     217},
{"id":31917,"name": "Полтавка                           ","latitude":44.03,  "longitude":131.30,"height":     110},
{"id":31921,"name": "Астраханка                         ","latitude":44.70,  "longitude":132.07,"height":      74},
{"id":31924,"name": "Хороль                             ","latitude":44.43,  "longitude":132.07,"height":     126},
{"id":31931,"name": "Свиягино                           ","latitude":44.80,  "longitude":133.10,"height":      99},
{"id":31935,"name": "Яковлевка                          ","latitude":44.42,  "longitude":133.48,"height":     158},
{"id":31939,"name": "Чугуевка                           ","latitude":44.15,  "longitude":133.88,"height":     257},
{"id":31958,"name": "Богополь                           ","latitude":44.25,  "longitude":135.50,"height":      62},
{"id":31959,"name": "Рудная_пристань                    ","latitude":44.40,  "longitude":135.90,"height":      27},
{"id":31960,"name": "Владивосток                        ","latitude":43.80,  "longitude":131.90,"height":     187},
{"id":31961,"name": "Тимирязевский                      ","latitude":43.88,  "longitude":131.97,"height":      34},
{"id":31969,"name": "Посьет                             ","latitude":42.65,  "longitude":130.80,"height":      41},
{"id":31981,"name": "Анучино                            ","latitude":43.97,  "longitude":133.07,"height":     186},
{"id":31987,"name": "Партизанск                         ","latitude":43.15,  "longitude":133.02,"height":     221},
{"id":31989,"name": "Преображение                       ","latitude":42.90,  "longitude":133.90,"height":      44},
{"id":31994,"name": "Березняки                          ","latitude":43.60,  "longitude":134.17,"height":     507},
{"id":32014,"name": "Москальво                          ","latitude":53.57,  "longitude":142.50,"height":       5},
{"id":32027,"name": "Погиби                             ","latitude":52.22,  "longitude":141.63,"height":       6},